[
  {
    "county": "臺東縣",
    "township": "成功鎮",
    "lat": 23.1187,
    "lng": 121.3547
  },
  {
    "county": "屏東縣",
    "township": "佳冬鄉",
    "lat": 22.4302,
    "lng": 120.5477
  },
  {
    "county": "雲林縣",
    "township": "麥寮鄉",
    "lat": 23.789,
    "lng": 120.2384
  },
  {
    "county": "臺東縣",
    "township": "綠島鄉",
    "lat": 22.6569,
    "lng": 121.4959
  },
  {
    "county": "臺東縣",
    "township": "蘭嶼鄉",
    "lat": 22.0482,
    "lng": 121.551
  },
  {
    "county": "彰化縣",
    "township": "田中鎮",
    "lat": 23.8569,
    "lng": 120.5948
  },
  {
    "county": "彰化縣",
    "township": "社頭鄉",
    "lat": 23.9059,
    "lng": 120.608
  },
  {
    "county": "屏東縣",
    "township": "竹田鄉",
    "lat": 22.5816,
    "lng": 120.5224
  },
  {
    "county": "屏東縣",
    "township": "萬丹鄉",
    "lat": 22.5809,
    "lng": 120.4839
  },
  {
    "county": "苗栗縣",
    "township": "三灣鄉",
    "lat": 24.635,
    "lng": 120.9522
  },
  {
    "county": "新竹縣",
    "township": "峨眉鄉",
    "lat": 24.679,
    "lng": 121.0087
  },
  {
    "county": "苗栗縣",
    "township": "南庄鄉",
    "lat": 24.5742,
    "lng": 121.0128
  },
  {
    "county": "嘉義縣",
    "township": "太保市",
    "lat": 23.4766,
    "lng": 120.3541
  },
  {
    "county": "嘉義縣",
    "township": "中埔鄉",
    "lat": 23.4017,
    "lng": 120.5182
  },
  {
    "county": "嘉義縣",
    "township": "番路鄉",
    "lat": 23.439,
    "lng": 120.5909
  },
  {
    "county": "嘉義縣",
    "township": "水上鄉",
    "lat": 23.4263,
    "lng": 120.4281
  },
  {
    "county": "彰化縣",
    "township": "員林市",
    "lat": 23.9601,
    "lng": 120.6011
  },
  {
    "county": "高雄市",
    "township": "小港區",
    "lat": 22.55,
    "lng": 120.351
  },
  {
    "county": "宜蘭縣",
    "township": "蘇澳鎮",
    "lat": 24.5523,
    "lng": 121.8363
  },
  {
    "county": "宜蘭縣",
    "township": "五結鄉",
    "lat": 24.684,
    "lng": 121.793
  },
  {
    "county": "宜蘭縣",
    "township": "宜蘭市",
    "lat": 24.7502,
    "lng": 121.757
  },
  {
    "county": "宜蘭縣",
    "township": "壯圍鄉",
    "lat": 24.7636,
    "lng": 121.7927
  },
  {
    "county": "連江縣",
    "township": "南竿鄉",
    "lat": 26.1576,
    "lng": 119.9335
  },
  {
    "county": "連江縣",
    "township": "莒光鄉",
    "lat": 25.9612,
    "lng": 119.9752
  },
  {
    "county": "金門縣",
    "township": "烏坵鄉",
    "lat": 24.983,
    "lng": 119.4716
  },
  {
    "county": "宜蘭縣",
    "township": "羅東鎮",
    "lat": 24.6804,
    "lng": 121.7694
  },
  {
    "county": "宜蘭縣",
    "township": "員山鄉",
    "lat": 24.7379,
    "lng": 121.6696
  },
  {
    "county": "宜蘭縣",
    "township": "冬山鄉",
    "lat": 24.6449,
    "lng": 121.7539
  },
  {
    "county": "宜蘭縣",
    "township": "三星鄉",
    "lat": 24.6623,
    "lng": 121.6656
  },
  {
    "county": "宜蘭縣",
    "township": "大同鄉",
    "lat": 24.5569,
    "lng": 121.5485
  },
  {
    "county": "新竹縣",
    "township": "竹東鎮",
    "lat": 24.7221,
    "lng": 121.0734
  },
  {
    "county": "新竹縣",
    "township": "新埔鎮",
    "lat": 24.8426,
    "lng": 121.095
  },
  {
    "county": "新竹縣",
    "township": "關西鎮",
    "lat": 24.7894,
    "lng": 121.1895
  },
  {
    "county": "新竹縣",
    "township": "湖口鄉",
    "lat": 24.8862,
    "lng": 121.063
  },
  {
    "county": "新竹縣",
    "township": "芎林鄉",
    "lat": 24.768,
    "lng": 121.1021
  },
  {
    "county": "新竹縣",
    "township": "橫山鄉",
    "lat": 24.7156,
    "lng": 121.1496
  },
  {
    "county": "新竹縣",
    "township": "北埔鄉",
    "lat": 24.6767,
    "lng": 121.066
  },
  {
    "county": "新竹縣",
    "township": "五峰鄉",
    "lat": 24.575,
    "lng": 121.1386
  },
  {
    "county": "臺中市",
    "township": "龍井區",
    "lat": 24.1997,
    "lng": 120.5365
  },
  {
    "county": "臺中市",
    "township": "大雅區",
    "lat": 24.2257,
    "lng": 120.652
  },
  {
    "county": "臺中市",
    "township": "沙鹿區",
    "lat": 24.2389,
    "lng": 120.5808
  },
  {
    "county": "臺中市",
    "township": "梧棲區",
    "lat": 24.2498,
    "lng": 120.5256
  },
  {
    "county": "澎湖縣",
    "township": "湖西鄉",
    "lat": 23.5859,
    "lng": 119.646
  },
  {
    "county": "臺東縣",
    "township": "金峰鄉",
    "lat": 22.6024,
    "lng": 120.8964
  },
  {
    "county": "臺東縣",
    "township": "太麻里鄉",
    "lat": 22.594,
    "lng": 120.9732
  },
  {
    "county": "苗栗縣",
    "township": "苗栗市",
    "lat": 24.5568,
    "lng": 120.8048
  },
  {
    "county": "苗栗縣",
    "township": "卓蘭鎮",
    "lat": 24.3391,
    "lng": 120.8441
  },
  {
    "county": "苗栗縣",
    "township": "大湖鄉",
    "lat": 24.3843,
    "lng": 120.8464
  },
  {
    "county": "苗栗縣",
    "township": "公館鄉",
    "lat": 24.5064,
    "lng": 120.8563
  },
  {
    "county": "苗栗縣",
    "township": "銅鑼鄉",
    "lat": 24.4592,
    "lng": 120.8052
  },
  {
    "county": "苗栗縣",
    "township": "頭屋鄉",
    "lat": 24.5791,
    "lng": 120.8838
  },
  {
    "county": "苗栗縣",
    "township": "三義鄉",
    "lat": 24.3843,
    "lng": 120.7777
  },
  {
    "county": "苗栗縣",
    "township": "西湖鄉",
    "lat": 24.5409,
    "lng": 120.7596
  },
  {
    "county": "苗栗縣",
    "township": "造橋鄉",
    "lat": 24.6179,
    "lng": 120.8885
  },
  {
    "county": "苗栗縣",
    "township": "獅潭鄉",
    "lat": 24.5225,
    "lng": 120.9243
  },
  {
    "county": "彰化縣",
    "township": "彰化市",
    "lat": 24.0728,
    "lng": 120.5511
  },
  {
    "county": "彰化縣",
    "township": "和美鎮",
    "lat": 24.1098,
    "lng": 120.5092
  },
  {
    "county": "彰化縣",
    "township": "線西鄉",
    "lat": 24.1316,
    "lng": 120.4503
  },
  {
    "county": "彰化縣",
    "township": "伸港鄉",
    "lat": 24.1603,
    "lng": 120.4721
  },
  {
    "county": "彰化縣",
    "township": "秀水鄉",
    "lat": 24.0314,
    "lng": 120.5038
  },
  {
    "county": "彰化縣",
    "township": "花壇鄉",
    "lat": 24.0346,
    "lng": 120.559
  },
  {
    "county": "彰化縣",
    "township": "芬園鄉",
    "lat": 24.0001,
    "lng": 120.6278
  },
  {
    "county": "彰化縣",
    "township": "溪湖鎮",
    "lat": 23.9585,
    "lng": 120.4853
  },
  {
    "county": "嘉義縣",
    "township": "東石鄉",
    "lat": 23.4619,
    "lng": 120.1693
  },
  {
    "county": "彰化縣",
    "township": "大村鄉",
    "lat": 23.9944,
    "lng": 120.5547
  },
  {
    "county": "彰化縣",
    "township": "埔鹽鄉",
    "lat": 23.9917,
    "lng": 120.4605
  },
  {
    "county": "彰化縣",
    "township": "埔心鄉",
    "lat": 23.9536,
    "lng": 120.5332
  },
  {
    "county": "彰化縣",
    "township": "永靖鄉",
    "lat": 23.9234,
    "lng": 120.5361
  },
  {
    "county": "彰化縣",
    "township": "二水鄉",
    "lat": 23.8232,
    "lng": 120.6294
  },
  {
    "county": "彰化縣",
    "township": "二林鎮",
    "lat": 23.913,
    "lng": 120.4016
  },
  {
    "county": "彰化縣",
    "township": "埤頭鄉",
    "lat": 23.8826,
    "lng": 120.4652
  },
  {
    "county": "彰化縣",
    "township": "芳苑鄉",
    "lat": 23.9461,
    "lng": 120.3509
  },
  {
    "county": "彰化縣",
    "township": "大城鄉",
    "lat": 23.8727,
    "lng": 120.3113
  },
  {
    "county": "彰化縣",
    "township": "竹塘鄉",
    "lat": 23.8577,
    "lng": 120.4111
  },
  {
    "county": "彰化縣",
    "township": "溪州鄉",
    "lat": 23.8383,
    "lng": 120.5207
  },
  {
    "county": "南投縣",
    "township": "南投市",
    "lat": 23.9214,
    "lng": 120.6713
  },
  {
    "county": "南投縣",
    "township": "埔里鎮",
    "lat": 23.9679,
    "lng": 120.9669
  },
  {
    "county": "南投縣",
    "township": "草屯鎮",
    "lat": 23.9797,
    "lng": 120.7387
  },
  {
    "county": "南投縣",
    "township": "竹山鎮",
    "lat": 23.6911,
    "lng": 120.7209
  },
  {
    "county": "南投縣",
    "township": "集集鎮",
    "lat": 23.8441,
    "lng": 120.7891
  },
  {
    "county": "南投縣",
    "township": "名間鄉",
    "lat": 23.8473,
    "lng": 120.6566
  },
  {
    "county": "南投縣",
    "township": "鹿谷鄉",
    "lat": 23.7454,
    "lng": 120.7764
  },
  {
    "county": "南投縣",
    "township": "中寮鄉",
    "lat": 23.9094,
    "lng": 120.7821
  },
  {
    "county": "南投縣",
    "township": "魚池鄉",
    "lat": 23.879,
    "lng": 120.9243
  },
  {
    "county": "南投縣",
    "township": "國姓鄉",
    "lat": 24.0295,
    "lng": 120.8703
  },
  {
    "county": "南投縣",
    "township": "水里鄉",
    "lat": 23.8101,
    "lng": 120.8676
  },
  {
    "county": "南投縣",
    "township": "信義鄉",
    "lat": 23.6596,
    "lng": 121.0257
  },
  {
    "county": "南投縣",
    "township": "仁愛鄉",
    "lat": 24.0227,
    "lng": 121.1254
  },
  {
    "county": "雲林縣",
    "township": "斗六市",
    "lat": 23.7024,
    "lng": 120.5653
  },
  {
    "county": "雲林縣",
    "township": "斗南鎮",
    "lat": 23.6741,
    "lng": 120.4816
  },
  {
    "county": "雲林縣",
    "township": "虎尾鎮",
    "lat": 23.7103,
    "lng": 120.4319
  },
  {
    "county": "雲林縣",
    "township": "西螺鎮",
    "lat": 23.7734,
    "lng": 120.449
  },
  {
    "county": "雲林縣",
    "township": "土庫鎮",
    "lat": 23.6998,
    "lng": 120.3604
  },
  {
    "county": "雲林縣",
    "township": "北港鎮",
    "lat": 23.5903,
    "lng": 120.2916
  },
  {
    "county": "雲林縣",
    "township": "古坑鄉",
    "lat": 23.6263,
    "lng": 120.6209
  },
  {
    "county": "雲林縣",
    "township": "大埤鄉",
    "lat": 23.6432,
    "lng": 120.428
  },
  {
    "county": "雲林縣",
    "township": "莿桐鄉",
    "lat": 23.7665,
    "lng": 120.524
  },
  {
    "county": "雲林縣",
    "township": "林內鄉",
    "lat": 23.7468,
    "lng": 120.6107
  },
  {
    "county": "雲林縣",
    "township": "二崙鄉",
    "lat": 23.7871,
    "lng": 120.4053
  },
  {
    "county": "雲林縣",
    "township": "崙背鄉",
    "lat": 23.7737,
    "lng": 120.3291
  },
  {
    "county": "雲林縣",
    "township": "東勢鄉",
    "lat": 23.7037,
    "lng": 120.26
  },
  {
    "county": "雲林縣",
    "township": "褒忠鄉",
    "lat": 23.7157,
    "lng": 120.3131
  },
  {
    "county": "雲林縣",
    "township": "元長鄉",
    "lat": 23.6435,
    "lng": 120.3249
  },
  {
    "county": "雲林縣",
    "township": "水林鄉",
    "lat": 23.5663,
    "lng": 120.2385
  },
  {
    "county": "嘉義縣",
    "township": "朴子市",
    "lat": 23.4423,
    "lng": 120.2536
  },
  {
    "county": "嘉義縣",
    "township": "大林鎮",
    "lat": 23.5958,
    "lng": 120.474
  },
  {
    "county": "嘉義縣",
    "township": "民雄鄉",
    "lat": 23.5406,
    "lng": 120.4461
  },
  {
    "county": "嘉義縣",
    "township": "溪口鄉",
    "lat": 23.5938,
    "lng": 120.4077
  },
  {
    "county": "嘉義縣",
    "township": "新港鄉",
    "lat": 23.5465,
    "lng": 120.3545
  },
  {
    "county": "嘉義縣",
    "township": "六腳鄉",
    "lat": 23.5086,
    "lng": 120.269
  },
  {
    "county": "嘉義縣",
    "township": "義竹鄉",
    "lat": 23.3526,
    "lng": 120.2278
  },
  {
    "county": "嘉義縣",
    "township": "鹿草鄉",
    "lat": 23.4133,
    "lng": 120.2995
  },
  {
    "county": "嘉義縣",
    "township": "竹崎鄉",
    "lat": 23.5023,
    "lng": 120.5923
  },
  {
    "county": "嘉義縣",
    "township": "梅山鄉",
    "lat": 23.5568,
    "lng": 120.62
  },
  {
    "county": "嘉義縣",
    "township": "大埔鄉",
    "lat": 23.2905,
    "lng": 120.5996
  },
  {
    "county": "嘉義縣",
    "township": "阿里山鄉",
    "lat": 23.4442,
    "lng": 120.7772
  },
  {
    "county": "屏東縣",
    "township": "屏東市",
    "lat": 22.6669,
    "lng": 120.4904
  },
  {
    "county": "屏東縣",
    "township": "潮州鎮",
    "lat": 22.5415,
    "lng": 120.5487
  },
  {
    "county": "屏東縣",
    "township": "長治鄉",
    "lat": 22.6897,
    "lng": 120.5542
  },
  {
    "county": "屏東縣",
    "township": "麟洛鄉",
    "lat": 22.6531,
    "lng": 120.5314
  },
  {
    "county": "屏東縣",
    "township": "九如鄉",
    "lat": 22.7355,
    "lng": 120.4951
  },
  {
    "county": "屏東縣",
    "township": "里港鄉",
    "lat": 22.7991,
    "lng": 120.5134
  },
  {
    "county": "屏東縣",
    "township": "鹽埔鄉",
    "lat": 22.7379,
    "lng": 120.5691
  },
  {
    "county": "屏東縣",
    "township": "高樹鄉",
    "lat": 22.8002,
    "lng": 120.6073
  },
  {
    "county": "屏東縣",
    "township": "萬巒鄉",
    "lat": 22.5803,
    "lng": 120.6092
  },
  {
    "county": "屏東縣",
    "township": "內埔鄉",
    "lat": 22.64,
    "lng": 120.5929
  },
  {
    "county": "屏東縣",
    "township": "新埤鄉",
    "lat": 22.4813,
    "lng": 120.5977
  },
  {
    "county": "屏東縣",
    "township": "崁頂鄉",
    "lat": 22.5189,
    "lng": 120.5065
  },
  {
    "county": "屏東縣",
    "township": "南州鄉",
    "lat": 22.4813,
    "lng": 120.5175
  },
  {
    "county": "屏東縣",
    "township": "琉球鄉",
    "lat": 22.3384,
    "lng": 120.3677
  },
  {
    "county": "屏東縣",
    "township": "三地門鄉",
    "lat": 22.7911,
    "lng": 120.6821
  },
  {
    "county": "屏東縣",
    "township": "霧臺鄉",
    "lat": 22.7577,
    "lng": 120.8032
  },
  {
    "county": "屏東縣",
    "township": "瑪家鄉",
    "lat": 22.6714,
    "lng": 120.6727
  },
  {
    "county": "屏東縣",
    "township": "泰武鄉",
    "lat": 22.5913,
    "lng": 120.6587
  },
  {
    "county": "屏東縣",
    "township": "來義鄉",
    "lat": 22.4911,
    "lng": 120.665
  },
  {
    "county": "屏東縣",
    "township": "春日鄉",
    "lat": 22.4017,
    "lng": 120.6803
  },
  {
    "county": "屏東縣",
    "township": "獅子鄉",
    "lat": 22.2538,
    "lng": 120.7326
  },
  {
    "county": "臺東縣",
    "township": "鹿野鄉",
    "lat": 22.951,
    "lng": 121.1517
  },
  {
    "county": "臺東縣",
    "township": "池上鄉",
    "lat": 23.1,
    "lng": 121.2104
  },
  {
    "county": "臺東縣",
    "township": "延平鄉",
    "lat": 22.9031,
    "lng": 121.001
  },
  {
    "county": "花蓮縣",
    "township": "光復鄉",
    "lat": 23.6475,
    "lng": 121.4413
  },
  {
    "county": "花蓮縣",
    "township": "瑞穗鄉",
    "lat": 23.5226,
    "lng": 121.4084
  },
  {
    "county": "花蓮縣",
    "township": "富里鄉",
    "lat": 23.1964,
    "lng": 121.2984
  },
  {
    "county": "澎湖縣",
    "township": "馬公市",
    "lat": 23.5496,
    "lng": 119.5841
  },
  {
    "county": "澎湖縣",
    "township": "白沙鄉",
    "lat": 23.6465,
    "lng": 119.5887
  },
  {
    "county": "澎湖縣",
    "township": "西嶼鄉",
    "lat": 23.6029,
    "lng": 119.5089
  },
  {
    "county": "澎湖縣",
    "township": "望安鄉",
    "lat": 23.3735,
    "lng": 119.5031
  },
  {
    "county": "澎湖縣",
    "township": "七美鄉",
    "lat": 23.2023,
    "lng": 119.4253
  },
  {
    "county": "基隆市",
    "township": "暖暖區",
    "lat": 25.0859,
    "lng": 121.7429
  },
  {
    "county": "臺北市",
    "township": "大安區",
    "lat": 25.0224,
    "lng": 121.546
  },
  {
    "county": "臺北市",
    "township": "文山區",
    "lat": 24.991,
    "lng": 121.5722
  },
  {
    "county": "高雄市",
    "township": "鹽埕區",
    "lat": 22.622,
    "lng": 120.2852
  },
  {
    "county": "高雄市",
    "township": "新興區",
    "lat": 22.6294,
    "lng": 120.3066
  },
  {
    "county": "高雄市",
    "township": "前金區",
    "lat": 22.6258,
    "lng": 120.2964
  },
  {
    "county": "高雄市",
    "township": "前鎮區",
    "lat": 22.5973,
    "lng": 120.3191
  },
  {
    "county": "宜蘭縣",
    "township": "頭城鎮",
    "lat": 24.9106,
    "lng": 121.8471
  },
  {
    "county": "宜蘭縣",
    "township": "南澳鄉",
    "lat": 24.4523,
    "lng": 121.6651
  },
  {
    "county": "新竹縣",
    "township": "竹北市",
    "lat": 24.8351,
    "lng": 121.0035
  },
  {
    "county": "新竹縣",
    "township": "新豐鄉",
    "lat": 24.9128,
    "lng": 121.0005
  },
  {
    "county": "苗栗縣",
    "township": "苑裡鎮",
    "lat": 24.4159,
    "lng": 120.6859
  },
  {
    "county": "苗栗縣",
    "township": "通霄鎮",
    "lat": 24.4868,
    "lng": 120.7173
  },
  {
    "county": "苗栗縣",
    "township": "竹南鎮",
    "lat": 24.6996,
    "lng": 120.8887
  },
  {
    "county": "苗栗縣",
    "township": "後龍鎮",
    "lat": 24.6069,
    "lng": 120.7792
  },
  {
    "county": "彰化縣",
    "township": "鹿港鎮",
    "lat": 24.0792,
    "lng": 120.4364
  },
  {
    "county": "彰化縣",
    "township": "福興鄉",
    "lat": 24.0277,
    "lng": 120.4407
  },
  {
    "county": "雲林縣",
    "township": "臺西鄉",
    "lat": 23.714,
    "lng": 120.2067
  },
  {
    "county": "雲林縣",
    "township": "四湖鄉",
    "lat": 23.6383,
    "lng": 120.2043
  },
  {
    "county": "雲林縣",
    "township": "口湖鄉",
    "lat": 23.4834,
    "lng": 120.0465
  },
  {
    "county": "嘉義縣",
    "township": "布袋鎮",
    "lat": 23.3934,
    "lng": 120.1902
  },
  {
    "county": "屏東縣",
    "township": "東港鎮",
    "lat": 22.4657,
    "lng": 120.4806
  },
  {
    "county": "屏東縣",
    "township": "枋寮鄉",
    "lat": 22.3963,
    "lng": 120.6082
  },
  {
    "county": "屏東縣",
    "township": "新園鄉",
    "lat": 22.5187,
    "lng": 120.4603
  },
  {
    "county": "屏東縣",
    "township": "林邊鄉",
    "lat": 22.4482,
    "lng": 120.5123
  },
  {
    "county": "屏東縣",
    "township": "車城鄉",
    "lat": 22.0769,
    "lng": 120.7296
  },
  {
    "county": "屏東縣",
    "township": "滿州鄉",
    "lat": 22.0581,
    "lng": 120.8359
  },
  {
    "county": "屏東縣",
    "township": "枋山鄉",
    "lat": 22.2451,
    "lng": 120.6702
  },
  {
    "county": "屏東縣",
    "township": "牡丹鄉",
    "lat": 22.1502,
    "lng": 120.8226
  },
  {
    "county": "臺東縣",
    "township": "臺東市",
    "lat": 22.7671,
    "lng": 121.1141
  },
  {
    "county": "臺東縣",
    "township": "卑南鄉",
    "lat": 22.7557,
    "lng": 120.9965
  },
  {
    "county": "臺東縣",
    "township": "東河鄉",
    "lat": 22.9782,
    "lng": 121.2511
  },
  {
    "county": "花蓮縣",
    "township": "吉安鄉",
    "lat": 23.9687,
    "lng": 121.5614
  },
  {
    "county": "花蓮縣",
    "township": "壽豐鄉",
    "lat": 23.8283,
    "lng": 121.5226
  },
  {
    "county": "花蓮縣",
    "township": "秀林鄉",
    "lat": 24.1426,
    "lng": 121.498
  },
  {
    "county": "高雄市",
    "township": "楠梓區",
    "lat": 22.7234,
    "lng": 120.3058
  },
  {
    "county": "高雄市",
    "township": "鳳山區",
    "lat": 22.6169,
    "lng": 120.3518
  },
  {
    "county": "高雄市",
    "township": "大寮區",
    "lat": 22.5882,
    "lng": 120.4002
  },
  {
    "county": "高雄市",
    "township": "大樹區",
    "lat": 22.7088,
    "lng": 120.4154
  },
  {
    "county": "高雄市",
    "township": "大社區",
    "lat": 22.7424,
    "lng": 120.3702
  },
  {
    "county": "高雄市",
    "township": "仁武區",
    "lat": 22.7036,
    "lng": 120.3584
  },
  {
    "county": "高雄市",
    "township": "鳥松區",
    "lat": 22.664,
    "lng": 120.3738
  },
  {
    "county": "高雄市",
    "township": "岡山區",
    "lat": 22.8013,
    "lng": 120.299
  },
  {
    "county": "高雄市",
    "township": "橋頭區",
    "lat": 22.7516,
    "lng": 120.2973
  },
  {
    "county": "高雄市",
    "township": "燕巢區",
    "lat": 22.7873,
    "lng": 120.365
  },
  {
    "county": "高雄市",
    "township": "田寮區",
    "lat": 22.8717,
    "lng": 120.3893
  },
  {
    "county": "高雄市",
    "township": "阿蓮區",
    "lat": 22.8704,
    "lng": 120.3176
  },
  {
    "county": "高雄市",
    "township": "路竹區",
    "lat": 22.8576,
    "lng": 120.2642
  },
  {
    "county": "高雄市",
    "township": "湖內區",
    "lat": 22.895,
    "lng": 120.2204
  },
  {
    "county": "高雄市",
    "township": "旗山區",
    "lat": 22.8788,
    "lng": 120.4807
  },
  {
    "county": "高雄市",
    "township": "美濃區",
    "lat": 22.907,
    "lng": 120.5642
  },
  {
    "county": "高雄市",
    "township": "六龜區",
    "lat": 23.0183,
    "lng": 120.6576
  },
  {
    "county": "高雄市",
    "township": "甲仙區",
    "lat": 23.1193,
    "lng": 120.6199
  },
  {
    "county": "高雄市",
    "township": "杉林區",
    "lat": 22.9918,
    "lng": 120.5561
  },
  {
    "county": "高雄市",
    "township": "內門區",
    "lat": 22.9503,
    "lng": 120.4672
  },
  {
    "county": "高雄市",
    "township": "茂林區",
    "lat": 22.9083,
    "lng": 120.7651
  },
  {
    "county": "高雄市",
    "township": "桃源區",
    "lat": 23.2414,
    "lng": 120.8623
  },
  {
    "county": "高雄市",
    "township": "那瑪夏區",
    "lat": 23.2813,
    "lng": 120.7273
  },
  {
    "county": "新北市",
    "township": "永和區",
    "lat": 25.0062,
    "lng": 121.5157
  },
  {
    "county": "新北市",
    "township": "新店區",
    "lat": 24.933,
    "lng": 121.5371
  },
  {
    "county": "新北市",
    "township": "土城區",
    "lat": 24.9703,
    "lng": 121.451
  },
  {
    "county": "新北市",
    "township": "蘆洲區",
    "lat": 25.0924,
    "lng": 121.4683
  },
  {
    "county": "新北市",
    "township": "五股區",
    "lat": 25.0924,
    "lng": 121.432
  },
  {
    "county": "新北市",
    "township": "坪林區",
    "lat": 24.9123,
    "lng": 121.7289
  },
  {
    "county": "新北市",
    "township": "平溪區",
    "lat": 25.0229,
    "lng": 121.7543
  },
  {
    "county": "新北市",
    "township": "烏來區",
    "lat": 24.7894,
    "lng": 121.5549
  },
  {
    "county": "臺中市",
    "township": "豐原區",
    "lat": 24.2439,
    "lng": 120.736
  },
  {
    "county": "臺中市",
    "township": "東勢區",
    "lat": 24.2526,
    "lng": 120.8401
  },
  {
    "county": "臺中市",
    "township": "后里區",
    "lat": 24.317,
    "lng": 120.7214
  },
  {
    "county": "臺中市",
    "township": "神岡區",
    "lat": 24.2559,
    "lng": 120.6733
  },
  {
    "county": "臺中市",
    "township": "新社區",
    "lat": 24.1808,
    "lng": 120.828
  },
  {
    "county": "臺中市",
    "township": "石岡區",
    "lat": 24.2594,
    "lng": 120.7876
  },
  {
    "county": "臺中市",
    "township": "外埔區",
    "lat": 24.3364,
    "lng": 120.672
  },
  {
    "county": "臺中市",
    "township": "大肚區",
    "lat": 24.1485,
    "lng": 120.5592
  },
  {
    "county": "臺南市",
    "township": "新營區",
    "lat": 23.3067,
    "lng": 120.2932
  },
  {
    "county": "臺南市",
    "township": "鹽水區",
    "lat": 23.2948,
    "lng": 120.2508
  },
  {
    "county": "臺南市",
    "township": "白河區",
    "lat": 23.3505,
    "lng": 120.4564
  },
  {
    "county": "臺南市",
    "township": "後壁區",
    "lat": 23.3508,
    "lng": 120.3468
  },
  {
    "county": "臺南市",
    "township": "麻豆區",
    "lat": 23.1881,
    "lng": 120.2357
  },
  {
    "county": "臺南市",
    "township": "下營區",
    "lat": 23.2323,
    "lng": 120.2718
  },
  {
    "county": "臺南市",
    "township": "六甲區",
    "lat": 23.2292,
    "lng": 120.3758
  },
  {
    "county": "臺南市",
    "township": "官田區",
    "lat": 23.1954,
    "lng": 120.3551
  },
  {
    "county": "臺南市",
    "township": "大內區",
    "lat": 23.1469,
    "lng": 120.4015
  },
  {
    "county": "臺南市",
    "township": "佳里區",
    "lat": 23.1673,
    "lng": 120.1759
  },
  {
    "county": "臺南市",
    "township": "學甲區",
    "lat": 23.2595,
    "lng": 120.1863
  },
  {
    "county": "臺南市",
    "township": "西港區",
    "lat": 23.1235,
    "lng": 120.1947
  },
  {
    "county": "臺南市",
    "township": "新化區",
    "lat": 23.0402,
    "lng": 120.3478
  },
  {
    "county": "臺南市",
    "township": "新市區",
    "lat": 23.0822,
    "lng": 120.2845
  },
  {
    "county": "臺南市",
    "township": "安定區",
    "lat": 23.096,
    "lng": 120.2373
  },
  {
    "county": "臺南市",
    "township": "玉井區",
    "lat": 23.1173,
    "lng": 120.4625
  },
  {
    "county": "臺南市",
    "township": "楠西區",
    "lat": 23.1695,
    "lng": 120.5072
  },
  {
    "county": "臺南市",
    "township": "南化區",
    "lat": 23.1166,
    "lng": 120.5347
  },
  {
    "county": "臺南市",
    "township": "左鎮區",
    "lat": 23.0336,
    "lng": 120.4063
  },
  {
    "county": "臺南市",
    "township": "仁德區",
    "lat": 22.941,
    "lng": 120.241
  },
  {
    "county": "臺南市",
    "township": "歸仁區",
    "lat": 22.9499,
    "lng": 120.2944
  },
  {
    "county": "臺南市",
    "township": "關廟區",
    "lat": 22.9484,
    "lng": 120.3442
  },
  {
    "county": "臺南市",
    "township": "龍崎區",
    "lat": 22.9597,
    "lng": 120.3793
  },
  {
    "county": "臺南市",
    "township": "永康區",
    "lat": 23.0245,
    "lng": 120.2527
  },
  {
    "county": "臺南市",
    "township": "北區",
    "lat": 23.0098,
    "lng": 120.2091
  },
  {
    "county": "高雄市",
    "township": "林園區",
    "lat": 22.516,
    "lng": 120.3941
  },
  {
    "county": "高雄市",
    "township": "茄萣區",
    "lat": 22.8788,
    "lng": 120.2017
  },
  {
    "county": "高雄市",
    "township": "永安區",
    "lat": 22.8212,
    "lng": 120.2317
  },
  {
    "county": "高雄市",
    "township": "彌陀區",
    "lat": 22.7712,
    "lng": 120.2443
  },
  {
    "county": "高雄市",
    "township": "梓官區",
    "lat": 22.7502,
    "lng": 120.2594
  },
  {
    "county": "新北市",
    "township": "淡水區",
    "lat": 25.1927,
    "lng": 121.4726
  },
  {
    "county": "新北市",
    "township": "瑞芳區",
    "lat": 25.1057,
    "lng": 121.8293
  },
  {
    "county": "新北市",
    "township": "林口區",
    "lat": 25.0889,
    "lng": 121.3727
  },
  {
    "county": "新北市",
    "township": "三芝區",
    "lat": 25.2298,
    "lng": 121.5126
  },
  {
    "county": "新北市",
    "township": "八里區",
    "lat": 25.1179,
    "lng": 121.4052
  },
  {
    "county": "臺中市",
    "township": "大甲區",
    "lat": 24.3735,
    "lng": 120.6301
  },
  {
    "county": "臺中市",
    "township": "大安區",
    "lat": 24.3597,
    "lng": 120.5971
  },
  {
    "county": "臺南市",
    "township": "北門區",
    "lat": 23.2763,
    "lng": 120.1343
  },
  {
    "county": "臺南市",
    "township": "安南區",
    "lat": 23.0615,
    "lng": 120.1778
  },
  {
    "county": "桃園市",
    "township": "蘆竹區",
    "lat": 25.0618,
    "lng": 121.2926
  },
  {
    "county": "桃園市",
    "township": "龜山區",
    "lat": 25.0254,
    "lng": 121.3644
  },
  {
    "county": "桃園市",
    "township": "復興區",
    "lat": 24.7368,
    "lng": 121.3675
  },
  {
    "county": "嘉義市",
    "township": "東區",
    "lat": 23.4837,
    "lng": 120.4668
  },
  {
    "county": "嘉義市",
    "township": "西區",
    "lat": 23.4788,
    "lng": 120.4246
  },
  {
    "county": "臺東縣",
    "township": "達仁鄉",
    "lat": 22.3849,
    "lng": 120.8394
  },
  {
    "county": "臺東縣",
    "township": "大武鄉",
    "lat": 22.3823,
    "lng": 120.8906
  },
  {
    "county": "臺東縣",
    "township": "關山鎮",
    "lat": 23.036,
    "lng": 121.173
  },
  {
    "county": "臺東縣",
    "township": "海端鄉",
    "lat": 23.1073,
    "lng": 121.0228
  },
  {
    "county": "新竹市",
    "township": "北區",
    "lat": 24.8186,
    "lng": 120.9501
  },
  {
    "county": "新竹市",
    "township": "香山區",
    "lat": 24.7636,
    "lng": 120.9249
  },
  {
    "county": "宜蘭縣",
    "township": "礁溪鄉",
    "lat": 24.8107,
    "lng": 121.7309
  },
  {
    "county": "花蓮縣",
    "township": "玉里鎮",
    "lat": 23.3729,
    "lng": 121.3537
  },
  {
    "county": "花蓮縣",
    "township": "卓溪鄉",
    "lat": 23.3961,
    "lng": 121.191
  },
  {
    "county": "苗栗縣",
    "township": "頭份市",
    "lat": 24.6761,
    "lng": 120.9236
  },
  {
    "county": "臺中市",
    "township": "清水區",
    "lat": 24.2866,
    "lng": 120.5777
  },
  {
    "county": "臺南市",
    "township": "南區",
    "lat": 22.9473,
    "lng": 120.1883
  },
  {
    "county": "臺南市",
    "township": "東區",
    "lat": 22.9814,
    "lng": 120.2335
  },
  {
    "county": "臺南市",
    "township": "安平區",
    "lat": 22.9889,
    "lng": 120.161
  },
  {
    "county": "臺南市",
    "township": "中西區",
    "lat": 22.9983,
    "lng": 120.1862
  },
  {
    "county": "桃園市",
    "township": "大溪區",
    "lat": 24.8718,
    "lng": 121.3052
  },
  {
    "county": "桃園市",
    "township": "八德區",
    "lat": 24.9536,
    "lng": 121.2901
  },
  {
    "county": "桃園市",
    "township": "桃園區",
    "lat": 24.995,
    "lng": 121.3034
  },
  {
    "county": "桃園市",
    "township": "大園區",
    "lat": 25.0498,
    "lng": 121.2147
  },
  {
    "county": "桃園市",
    "township": "楊梅區",
    "lat": 24.9197,
    "lng": 121.121
  },
  {
    "county": "基隆市",
    "township": "七堵區",
    "lat": 25.1092,
    "lng": 121.6869
  },
  {
    "county": "基隆市",
    "township": "仁愛區",
    "lat": 25.1227,
    "lng": 121.743
  },
  {
    "county": "基隆市",
    "township": "信義區",
    "lat": 25.1251,
    "lng": 121.7731
  },
  {
    "county": "基隆市",
    "township": "中正區",
    "lat": 25.1456,
    "lng": 121.7774
  },
  {
    "county": "基隆市",
    "township": "中山區",
    "lat": 25.1507,
    "lng": 121.7312
  },
  {
    "county": "基隆市",
    "township": "安樂區",
    "lat": 25.1447,
    "lng": 121.7079
  },
  {
    "county": "新北市",
    "township": "三峽區",
    "lat": 24.8741,
    "lng": 121.4102
  },
  {
    "county": "新北市",
    "township": "鶯歌區",
    "lat": 24.9627,
    "lng": 121.3437
  },
  {
    "county": "新北市",
    "township": "中和區",
    "lat": 24.9916,
    "lng": 121.4953
  },
  {
    "county": "新北市",
    "township": "樹林區",
    "lat": 24.9843,
    "lng": 121.3963
  },
  {
    "county": "新北市",
    "township": "深坑區",
    "lat": 25.0009,
    "lng": 121.6187
  },
  {
    "county": "新北市",
    "township": "板橋區",
    "lat": 25.0024,
    "lng": 121.4546
  },
  {
    "county": "新北市",
    "township": "石碇區",
    "lat": 24.957,
    "lng": 121.6503
  },
  {
    "county": "新北市",
    "township": "新莊區",
    "lat": 25.0377,
    "lng": 121.4274
  },
  {
    "county": "新北市",
    "township": "泰山區",
    "lat": 25.0578,
    "lng": 121.4073
  },
  {
    "county": "新北市",
    "township": "三重區",
    "lat": 25.0645,
    "lng": 121.4831
  },
  {
    "county": "新北市",
    "township": "雙溪區",
    "lat": 24.9936,
    "lng": 121.8307
  },
  {
    "county": "新北市",
    "township": "貢寮區",
    "lat": 25.0369,
    "lng": 121.9264
  },
  {
    "county": "新北市",
    "township": "汐止區",
    "lat": 25.0746,
    "lng": 121.6559
  },
  {
    "county": "新北市",
    "township": "萬里區",
    "lat": 25.1839,
    "lng": 121.6592
  },
  {
    "county": "新北市",
    "township": "金山區",
    "lat": 25.217,
    "lng": 121.6099
  },
  {
    "county": "新北市",
    "township": "石門區",
    "lat": 25.2659,
    "lng": 121.5604
  },
  {
    "county": "高雄市",
    "township": "苓雅區",
    "lat": 22.6216,
    "lng": 120.3208
  },
  {
    "county": "高雄市",
    "township": "三民區",
    "lat": 22.6566,
    "lng": 120.3211
  },
  {
    "county": "桃園市",
    "township": "新屋區",
    "lat": 24.9707,
    "lng": 121.0713
  },
  {
    "county": "桃園市",
    "township": "觀音區",
    "lat": 25.0207,
    "lng": 121.1132
  },
  {
    "county": "連江縣",
    "township": "北竿鄉",
    "lat": 26.217,
    "lng": 119.9902
  },
  {
    "county": "連江縣",
    "township": "東引鄉",
    "lat": 26.3704,
    "lng": 120.4897
  },
  {
    "county": "金門縣",
    "township": "烈嶼鄉",
    "lat": 24.4269,
    "lng": 118.2446
  },
  {
    "county": "高雄市",
    "township": "旗津區",
    "lat": 20.7043,
    "lng": 116.7193
  },
  {
    "county": "臺東縣",
    "township": "長濱鄉",
    "lat": 23.3182,
    "lng": 121.424
  },
  {
    "county": "花蓮縣",
    "township": "豐濱鄉",
    "lat": 23.591,
    "lng": 121.4959
  },
  {
    "county": "臺中市",
    "township": "霧峰區",
    "lat": 24.0492,
    "lng": 120.7167
  },
  {
    "county": "臺中市",
    "township": "大里區",
    "lat": 24.0962,
    "lng": 120.6918
  },
  {
    "county": "臺中市",
    "township": "南區",
    "lat": 24.119,
    "lng": 120.6643
  },
  {
    "county": "臺中市",
    "township": "烏日區",
    "lat": 24.0819,
    "lng": 120.6342
  },
  {
    "county": "臺中市",
    "township": "中區",
    "lat": 24.1425,
    "lng": 120.6814
  },
  {
    "county": "臺中市",
    "township": "西區",
    "lat": 24.1481,
    "lng": 120.663
  },
  {
    "county": "臺中市",
    "township": "南屯區",
    "lat": 24.1476,
    "lng": 120.617
  },
  {
    "county": "臺中市",
    "township": "北區",
    "lat": 24.1566,
    "lng": 120.6774
  },
  {
    "county": "臺中市",
    "township": "西屯區",
    "lat": 24.1822,
    "lng": 120.6252
  },
  {
    "county": "臺中市",
    "township": "北屯區",
    "lat": 24.1848,
    "lng": 120.7269
  },
  {
    "county": "臺中市",
    "township": "潭子區",
    "lat": 24.2126,
    "lng": 120.7076
  },
  {
    "county": "臺北市",
    "township": "信義區",
    "lat": 25.0297,
    "lng": 121.5734
  },
  {
    "county": "臺北市",
    "township": "萬華區",
    "lat": 25.0304,
    "lng": 121.4993
  },
  {
    "county": "臺北市",
    "township": "中正區",
    "lat": 25.0295,
    "lng": 121.5198
  },
  {
    "county": "臺北市",
    "township": "松山區",
    "lat": 25.0635,
    "lng": 121.56
  },
  {
    "county": "臺北市",
    "township": "大同區",
    "lat": 25.0661,
    "lng": 121.5124
  },
  {
    "county": "臺北市",
    "township": "中山區",
    "lat": 25.0751,
    "lng": 121.5446
  },
  {
    "county": "臺北市",
    "township": "士林區",
    "lat": 25.13,
    "lng": 121.5514
  },
  {
    "county": "臺北市",
    "township": "北投區",
    "lat": 25.1596,
    "lng": 121.5292
  },
  {
    "county": "花蓮縣",
    "township": "花蓮市",
    "lat": 23.9967,
    "lng": 121.6018
  },
  {
    "county": "花蓮縣",
    "township": "新城鄉",
    "lat": 24.063,
    "lng": 121.6142
  },
  {
    "county": "臺南市",
    "township": "善化區",
    "lat": 23.1302,
    "lng": 120.2829
  },
  {
    "county": "臺南市",
    "township": "山上區",
    "lat": 23.0936,
    "lng": 120.3724
  },
  {
    "county": "彰化縣",
    "township": "北斗鎮",
    "lat": 23.8669,
    "lng": 120.5307
  },
  {
    "county": "彰化縣",
    "township": "田尾鄉",
    "lat": 23.8996,
    "lng": 120.5268
  },
  {
    "county": "金門縣",
    "township": "金沙鎮",
    "lat": 24.494,
    "lng": 118.4208
  },
  {
    "county": "金門縣",
    "township": "金湖鎮",
    "lat": 24.4378,
    "lng": 118.4248
  },
  {
    "county": "臺南市",
    "township": "柳營區",
    "lat": 23.2667,
    "lng": 120.3543
  },
  {
    "county": "臺南市",
    "township": "東山區",
    "lat": 23.2889,
    "lng": 120.4279
  },
  {
    "county": "臺南市",
    "township": "七股區",
    "lat": 23.1378,
    "lng": 120.1217
  },
  {
    "county": "臺南市",
    "township": "將軍區",
    "lat": 23.205,
    "lng": 120.124
  },
  {
    "county": "高雄市",
    "township": "鼓山區",
    "lat": 22.6461,
    "lng": 120.28
  },
  {
    "county": "高雄市",
    "township": "左營區",
    "lat": 22.6837,
    "lng": 120.2917
  },
  {
    "county": "桃園市",
    "township": "中壢區",
    "lat": 24.9861,
    "lng": 121.2127
  },
  {
    "county": "新竹縣",
    "township": "寶山鄉",
    "lat": 24.7355,
    "lng": 120.9926
  },
  {
    "county": "新竹市",
    "township": "東區",
    "lat": 24.7845,
    "lng": 120.9935
  },
  {
    "county": "屏東縣",
    "township": "恆春鎮",
    "lat": 21.9839,
    "lng": 120.7707
  },
  {
    "county": "臺中市",
    "township": "東區",
    "lat": 24.1397,
    "lng": 120.695
  },
  {
    "county": "臺中市",
    "township": "太平區",
    "lat": 24.1163,
    "lng": 120.7756
  },
  {
    "county": "花蓮縣",
    "township": "鳳林鎮",
    "lat": 23.7471,
    "lng": 121.4674
  },
  {
    "county": "花蓮縣",
    "township": "萬榮鄉",
    "lat": 23.6991,
    "lng": 121.3177
  },
  {
    "county": "桃園市",
    "township": "龍潭區",
    "lat": 24.8552,
    "lng": 121.2095
  },
  {
    "county": "桃園市",
    "township": "平鎮區",
    "lat": 24.9188,
    "lng": 121.2185
  },
  {
    "county": "臺北市",
    "township": "南港區",
    "lat": 25.0353,
    "lng": 121.6175
  },
  {
    "county": "臺北市",
    "township": "內湖區",
    "lat": 25.085,
    "lng": 121.5924
  },
  {
    "county": "金門縣",
    "township": "金寧鄉",
    "lat": 24.4495,
    "lng": 118.3307
  },
  {
    "county": "金門縣",
    "township": "金城鎮",
    "lat": 24.4168,
    "lng": 118.3158
  },
  {
    "county": "新竹縣",
    "township": "尖石鄉",
    "lat": 24.5943,
    "lng": 121.2755
  },
  {
    "county": "苗栗縣",
    "township": "泰安鄉",
    "lat": 24.4151,
    "lng": 121.0671
  },
  {
    "county": "臺中市",
    "township": "和平區",
    "lat": 24.2736,
    "lng": 121.1336
  }
]